     3.04           OBSERVATION DATA    M: Mixed            RINEX VERSION / TYPE
sbp2rinex v2.3 (RTKL                    20240214 162435 UTC PGM / RUN BY / DATE 
format: Swift Navigation SBP, option:                       COMMENT             
log: M:\Ardeshir\1-Career\2-Study\1-Ph.D\1-Projects\1-Main\1COMMENT             
                                                            MARKER NAME         
                                                            MARKER NUMBER       
                                                            MARKER TYPE         
                                                            OBSERVER / AGENCY   
                                                            REC # / TYPE / VERS 
                                                            ANT # / TYPE        
  2815213.6424   517185.1188  5680790.1522                  APPROX POSITION XYZ 
        0.0000        0.0000        0.0000                  ANTENNA: DELTA H/E/N
G    8 C1C L1C D1C S1C C2S L2S D2S S2S                      SYS / # / OBS TYPES 
R    8 C1C L1C D1C S1C C2C L2C D2C S2C                      SYS / # / OBS TYPES 
E    8 C1B L1B D1B S1B C7I L7I D7I S7I                      SYS / # / OBS TYPES 
C    8 C2I L2I D2I S2I C7I L7I D7I S7I                      SYS / # / OBS TYPES 
  2023    12    11    10    12   44.0000000     GPS         TIME OF FIRST OBS   
  2023    12    11    10    24   41.0000000     GPS         TIME OF LAST OBS    
G L1C                                                       SYS / PHASE SHIFT   
G L2S  0.00000                                              SYS / PHASE SHIFT   
R L1C                                                       SYS / PHASE SHIFT   
R L2C                                                       SYS / PHASE SHIFT   
E L1B                                                       SYS / PHASE SHIFT   
E L7I                                                       SYS / PHASE SHIFT   
C L2I                                                       SYS / PHASE SHIFT   
C L7I                                                       SYS / PHASE SHIFT   
  8 R04  6 R05  1 R06 -4 R14 -7 R15  0 R21  4 R22 -3 R26 -5 GLONASS SLOT / FRQ #
 C1C    0.000 C1P    0.000 C2C    0.000 C2P    0.000        GLONASS COD/PHS/BIS 
                                                            END OF HEADER       
> 2023 12 11 10 12 44.0000000  0 27       0.000000000000
G30  20853299.380   109584827.3201       -804.719          52.500    20853299.580    85390786.9571       -627.453          48.750  
G07  22361835.680   117512239.2731      -2392.953          48.500    22361833.980    91567976.9181      -1862.906          42.500  
G05  21428468.460   112607369.3091      -1749.852          51.500    21428466.380    87745989.5201      -1363.262          44.500  
G15  22503050.080   118254327.9691       3357.664          42.250    22503060.080    92146277.9411       2615.496          33.500  
G13  20403428.400   107220778.762        1531.367          51.250                                                                  
G22  23379651.560   122860883.695        3320.906          42.500                                                                  
G18  23537292.940   123689307.7731       -424.547          35.500    23537296.060    96381297.5431       -332.680          40.500  
G27  23875751.100   125467926.1603      -1178.938          31.250                                                                  
G20  23250038.220   122179778.160       -3528.863          39.250                                                                  
G14  22286454.200   117116104.727        2728.188          46.750    22286454.320    91259311.047        2126.246          48.250  
R14  19952290.720   106356983.5701      -1799.238          56.250                                                                  
R21  23303000.440   124699081.5661      -3566.523          35.250    23303001.680    96988168.113       -2773.309          41.250  
R15                                                                  20044939.860    83310938.9571       1996.477          48.750  
C07  38941082.060   202776426.9261        918.957          43.250    38941081.700   156799583.2581        709.781          43.250  
C24  25068253.940   130536968.117       -3100.465          46.500                                                                  
C10  39160283.040   203917866.2231       1283.441          44.000    39160286.780   157682225.9651        994.227          41.000  
C32  22270987.980   115970921.6911        514.250          52.000                                                                  
C23  23405584.040   121879051.1911       2526.484          51.500                                                                  
C25  22036179.700   114748169.0391       -469.375          54.250                                                                  
C09  40338202.780   210051594.0311      -1125.020          37.500    40338207.440   162425229.7661       -869.445          41.000  
E07  27392646.920   143949323.324       -2986.680          40.000    27392649.080   110298856.270       -2289.145          34.750  
E27  24675911.800   129672791.3521       1573.309          48.500    24675917.200    99359675.2731       1204.461          49.500  
E12  27322952.260   143583105.3631      -2617.074          39.250    27322956.700   110018212.2541      -2006.465          42.750  
E30  25632695.020   134700734.7621      -1455.082          46.000    25632699.420   103212250.1841      -1116.383          49.000  
E19  24256104.300   127466684.3131       1344.059          45.500    24256106.180    97669272.2191       1028.234          46.250  
E21  27614061.120   145112856.0001       3322.281          31.750    27614070.120   111190404.0121       2544.555          37.000  
E11                                                                  25385334.100   102216203.6451        -70.086          36.000  
> 2023 12 11 10 12 45.0000000  0 27       0.000000000000
G30  20853452.580   109585631.551        -804.945          52.000    20853452.620    85391413.625        -626.223          48.500  
G07  22362290.980   117514631.805       -2392.723          48.500    22362289.360    91569841.250       -1865.043          42.250  
G05  21428801.360   112609119.055       -1749.680          50.750    21428799.920    87747352.949       -1362.852          45.500  
G15  22502411.620   118250969.633        3357.629          42.000    22502421.400    92143661.074        2613.316          33.250  
G13  20403136.840   107219246.621        1530.852          50.750                                                                  
G22  23379019.340   122857561.914        3321.293          42.250                                                                  
G27  23875975.480   125469104.9342      -1179.313          32.000                                                                  
G20  23250709.360   122183305.223       -3525.758          38.250                                                                  
G14  22285934.860   117113375.086        2728.055          46.500    22285934.980    91257184.047        2126.699          48.000  
G18                                                                  23537377.060    96381629.777        -332.254          40.250  
R14  19952628.380   106358782.012       -1798.551          56.250                                                                  
R21  23303665.600   124702646.766       -3563.762          33.500    23303668.700    96990941.070       -2773.555          40.500  
R15                                                                  20044459.280    83308942.617        1994.441          48.750  
C07  38940905.160   202775507.039         920.121          42.750    38940904.760   156798871.934         710.906          42.500  
C24  25068848.920   130540066.625       -3100.484          46.250                                                                  
C10  39160036.260   203916581.012        1284.883          44.250    39160040.060   157681232.164         992.355          40.250  
C32  22270888.940   115970405.785         514.172          52.000                                                                  
C23  23405098.580   121876523.512        2527.332          51.500                                                                  
C25  22036269.820   114748637.672        -468.375          54.250                                                                  
C09  40338418.520   210052718.914       -1125.996          37.000    40338423.240   162426099.590        -871.301          40.000  
E07  27393215.840   143952309.051       -2985.297          40.250    27393215.420   110301143.902       -2289.855          33.500  
E27  24675612.340   129671217.797        1572.719          48.500    24675617.720    99358469.570        1204.766          49.500  
E12  27323451.220   143585722.262       -2618.066          38.250    27323454.640   110020217.449       -2004.250          42.500  
E30  25632971.960   134702189.824       -1456.328          46.250    25632976.420   103213365.098       -1115.891          49.000  
E19  24255848.640   127465339.609        1344.262          45.750    24255850.200    97668241.875        1031.594          46.000  
E11                                                                  25385350.560   102216271.563         -65.938          34.750  
E21                                                                  27613438.340   111187858.906        2541.891          37.000  
> 2023 12 11 10 12 46.0000000  0 26       0.000000000000
G30  20853605.840   109586437.039        -805.688          52.000    20853605.880    85392041.277        -627.676          48.500  
G07  22362746.380   117517025.316       -2394.121          48.500    22362744.620    91571706.328       -1865.641          42.500  
G05  21429134.560   112610870.273       -1751.426          50.500    21429133.520    87748717.535       -1365.137          45.750  
G15  22501772.880   118247612.371        3357.000          42.000    22501783.180    92141045.035        2617.918          33.000  
G13  20402845.580   107217715.809        1529.676          50.750                                                                  
G22  23378387.580   122854241.234        3321.414          42.000                                                                  
G20  23251380.560   122186833.422       -3528.676          38.250                                                                  
G14  22285415.920   117110646.664        2728.383          46.500    22285415.980    91255058.008        2126.004          48.000  
G18                                                                  23537458.500    96381963.027        -333.801          40.250  
R14  19952965.940   106360581.867       -1799.934          56.000                                                                  
R21  23304326.560   124706213.258       -3563.484          32.500    23304334.820    96993714.992       -2773.996          40.000  
R15                                                                  20043979.480    83306947.465        1995.457          48.750  
C07  38940728.440   202774587.914         920.379          42.750    38940728.160   156798161.223         710.680          42.250  
C24  25069443.980   130543165.895       -3098.723          46.250                                                                  
C10  39159789.780   203915296.570        1285.684          44.250    39159792.800   157680238.965         991.676          40.000  
C32  22270790.220   115969891.195         514.332          52.250                                                                  
C23  23404613.220   121873997.047        2526.547          51.500                                                                  
C25  22036360.020   114749107.527        -469.348          54.250                                                                  
C09  40338634.760   210053844.402       -1127.340          37.000    40338639.120   162426969.922        -870.359          39.750  
E07  27393784.120   143955295.563       -2986.176          40.250    27393782.520   110303432.301       -2290.590          32.750  
E27  24675313.180   129669645.418        1572.125          48.250    24675318.600    99357264.758        1204.754          49.500  
E12  27323949.160   143588340.316       -2615.926          38.250    27323952.740   110022223.469       -2006.527          42.250  
E30  25633249.180   134703645.922       -1455.500          46.000    25633253.460   103214480.801       -1116.500          49.000  
E19  24255593.020   127463996.020        1343.891          45.500    24255594.460    97667212.363        1029.320          46.000  
E21  27612798.740   145106231.9771       3323.254          33.500    27612806.920   111185314.582        2543.719          37.250  
E11                                                                  25385367.720   102216340.461         -68.582          34.500  
> 2023 12 11 10 12 47.0000000  0 27       0.000000000000
G30  20853759.100   109587242.918        -806.590          50.500    20853759.260    85392669.238        -626.867          48.500  
G07  22363201.980   117519419.020       -2394.473          47.000    22363200.720    91573571.543       -1865.566          42.500  
G05  21429467.700   112612621.957       -1751.777          49.000    21429467.180    87750082.477       -1364.859          46.000  
G15  22501134.240   118244255.301        3356.855          40.250    22501143.660    92138429.121        2621.047          32.750  
G13  20402554.400   107216185.379        1529.668          49.250                                                                  
G22  23377755.260   122850920.668        3320.402          40.750                                                                  
G20  23252052.260   122190361.730       -3527.484          36.750                                                                  
G14  22284896.760   117107918.527        2727.863          45.000    22284897.040    91252932.191        2125.449          48.000  
G18                                                                  23537540.380    96382296.695        -333.977          40.250  
R14  19953303.760   106362382.355       -1800.762          56.250                                                                  
R15                                                                  20043499.560    83304952.719        1995.098          49.000  
R21                                                                  23305000.720    96996489.176       -2773.410          40.750  
C07  38940551.820   202773668.797         918.762          42.750    38940551.140   156797450.492         710.547          42.250  
C24  25070039.140   130546265.250       -3099.516          46.250                                                                  
C10  39159543.140   203914012.078        1284.219          44.250    39159546.100   157679245.715         993.914          40.000  
C32  22270691.500   115969376.977         513.434          52.250                                                                  
C23  23404128.180   121871470.773        2525.824          51.500                                                                  
C20  25322738.440   131862136.7933       3165.574          33.250                                                                  
C25  22036450.320   114749577.754        -469.922          54.250                                                                  
C09  40338850.700   210054969.762       -1128.000          37.250    40338854.860   162427840.121        -870.906          39.750  
E07  27394352.320   143958281.988       -2988.141          40.500                                                                  
E27  24675013.860   129668073.301        1571.602          48.500    24675019.420    99356060.152        1203.613          49.500  
E12  27324447.720   143590958.473       -2618.113          38.500    27324450.760   110024229.605       -2006.035          42.250  
E30  25633526.080   134705102.289       -1457.563          46.000    25633530.640   103215596.727       -1117.176          49.000  
E19  24255337.420   127462652.566        1342.746          45.750    24255338.800    97666182.969        1030.641          45.750  
E21  27612166.340   145102911.266        3320.156          33.000    27612174.980   111182770.168        2544.688          37.250  
E11                                                                  25385384.500   102216409.672         -69.125          34.500  
> 2023 12 11 10 12 48.0000000  0 28       0.000000000000
G30  20853912.580   109588049.387        -807.766          50.000    20853912.600    85393297.652        -629.102          48.250  
G07  22363657.580   117521813.102       -2394.961          46.500    22363656.140    91575437.070       -1864.281          42.500  
G05  21429801.140   112614374.352       -1754.000          48.500    21429800.940    87751447.980       -1366.059          45.750  
G15  22500495.760   118240898.578        3355.730          40.000    22500505.320    92135813.500        2611.328          32.000  
G13  20402263.240   107214655.547        1527.641          48.750                                                                  
G22  23377123.640   122847600.430        3319.793          40.250                                                                  
G27  23876647.700   125472630.9733      -1181.273          29.750                                                                  
G20  23252723.700   122193890.332       -3530.391          36.000                                                                  
G14  22284377.660   117105190.887        2726.340          44.500    22284377.900    91250806.762        2124.766          48.000  
G18                                                                  23537622.080    96382630.977        -333.309          40.000  
R14  19953641.800   106364183.672       -1803.492          56.250                                                                  
R15                                                                  20043018.800    83302958.570        1992.289          48.750  
R21                                                                  23305668.680    96999263.777       -2775.535          41.000  
C07  38940375.680   202772749.852         916.313          42.750    38940374.820   156796739.922         710.973          42.250  
C24  25070634.300   130549364.848       -3100.094          46.250                                                                  
C10  39159296.380   203912727.781        1282.844          44.250    39159299.260   157678252.598         990.023          40.250  
C32  22270592.880   115968863.344         513.469          52.250                                                                  
C23  23403643.000   121868944.910        2524.438          51.500                                                                  
C20  25322130.800   131858970.7112       3165.363          33.750                                                                  
C25  22036540.740   114750048.555        -471.520          54.250                                                                  
C09  40339066.540   210056095.227       -1126.996          37.250    40339071.580   162428710.375        -870.008          39.750  
E07  27394920.360   143961268.574       -2988.254          40.250    27394918.720   110307974.0861      -2289.434          32.500  
E27  24674714.840   129666501.676        1571.688          48.250    24674720.340    99354855.926        1203.430          49.500  
E12  27324945.780   143593576.984       -2618.078          38.250    27324949.040   110026235.965       -2008.227          42.000  
E30  25633803.460   134706559.137       -1458.941          46.250    25633807.880   103216713.023       -1116.996          49.000  
E19  24255081.540   127461309.508        1342.156          45.750    24255083.320    97665153.863        1028.891          46.000  
E21  27611533.180   145099590.754        3319.832          33.000    27611543.140   111180225.871        2545.008          37.000  
E11                                                                  25385401.740   102216479.270         -71.113          34.250  
> 2023 12 11 10 12 49.0000000  0 28       0.000000000000
G30  20854066.120   109588856.383        -807.270          50.750    20854066.060    85393926.480        -629.789          48.250  
G07  22364113.200   117524207.496       -2394.652          47.250    22364111.920    91577302.840       -1866.719          42.250  
G05  21430134.780   112616127.363       -1753.707          49.250    21430134.620    87752813.961       -1367.512          45.750  
G15  22499856.920   118237542.215        3356.422          40.750    22499866.420    92133198.180        2612.531          32.500  
G13  20401972.140   107213126.234        1528.805          49.500                                                                  
G22  23376492.100   122844280.477        3321.680          41.500                                                                  
G27  23876873.040   125473813.9103      -1183.059          31.000                                                                  
G20  23253395.180   122197419.203       -3529.219          36.750                                                                  
G14  22283858.700   117102463.668        2725.684          45.000    22283858.900    91248681.648        2124.199          48.000  
G18                                                                  23537703.980    96382965.746        -335.152          39.750  
R14  19953980.060   106365985.746       -1802.488          56.250                                                                  
R15                                                                  20042539.580    83300964.949        1992.773          48.750  
R21                                                                  23306335.300    97002038.758       -2774.914          40.750  
C07  38940198.980   202771831.074         919.324          42.750    38940198.580   156796029.449         708.863          42.250  
C24  25071229.680   130552464.633       -3099.105          46.250                                                                  
C10  39159049.720   203911443.574        1284.230          44.250    39159052.660   157677259.566         995.164          40.250  
C32  22270494.260   115968350.211         513.035          52.250                                                                  
C23  23403157.980   121866419.387        2525.027          51.500                                                                  
C20  25321523.320   131855804.7272       3163.348          34.000                                                                  
C25  22036631.180   114750519.875        -471.246          54.250                                                                  
C09  40339283.040   210057220.668       -1124.340          37.250    40339287.840   162429580.625        -870.160          40.000  
E07  27395488.780   143964255.223       -2987.910          40.250                                                                  
E27  24674415.720   129664930.477        1571.602          48.250    24674421.400    99353652.016        1204.664          49.500  
E12  27325444.220   143596195.742       -2619.676          38.750    27325447.360   110028242.547       -2007.453          42.250  
E30  25634080.720   134708016.410       -1457.992          46.250    25634085.200   103217829.625       -1116.492          49.250  
E19  24254826.180   127459966.723        1342.625          45.500    24254827.700    97664124.977        1029.867          46.000  
E21  27610901.860   145096270.230        3317.473          33.250    27610911.320   111177681.648        2545.191          37.000  
E11                                                                  25385419.100   102216549.273         -71.098          34.000  
> 2023 12 11 10 12 50.0000000  0 28       0.000000000000
G30  20854219.720   109589664.285        -807.625          50.750    20854219.800    85394556.012        -629.078          48.250  
G07  22364569.060   117526602.594       -2394.414          47.500    22364567.620    91579169.129       -1867.488          42.250  
G05  21430468.360   112617881.383       -1754.699          49.250    21430468.520    87754180.727       -1367.387          46.000  
G15  22499218.400   118234186.516        3354.703          41.250    22499227.500    92130583.332        2615.746          31.500  
G13  20401681.240   107211597.836        1528.957          49.750                                                                  
G22  23375860.360   122840961.137        3320.059          41.250                                                                  
G27  23877097.600   125474997.500       -1183.121          31.000                                                                  
G20  23254066.500   122200948.691       -3528.637          37.000                                                                  
G14  22283339.880   117099737.258        2725.809          45.250    22283339.980    91246557.172        2123.957          48.000  
G18                                                                  23537785.540    96383301.352        -334.648          39.750  
R14  19954318.300   106367788.945       -1804.039          56.500                                                                  
R15                                                                  20042059.840    83298972.188        1992.582          49.000  
R21                                                                  23307002.540    97004814.395       -2776.359          41.000  
C07  38940022.660   202770912.824         919.824          42.750    38940022.140   156795319.398         709.172          42.250  
C24  25071824.960   130555564.961       -3099.875          46.500                                                                  
C10  39158803.440   203910159.816        1283.699          44.250    39158806.140   157676266.895         992.086          40.250  
C32  22270395.840   115967837.984         511.348          52.250                                                                  
C23  23402673.180   121863894.594        2524.879          51.750                                                                  
C20  25320915.320   131852639.3402       3166.953          34.250                                                                  
C25  22036721.780   114750992.074        -473.273          54.250                                                                  
C09  40339498.760   210058346.445       -1125.129          37.250    40339504.020   162430451.172        -869.941          40.250  
E07  27396057.220   143967242.332       -2988.855          40.250                                                                  
E27  24674117.060   129663360.063        1569.480          48.250    24674122.600    99352448.723        1203.398          49.500  
E12  27325942.880   143598815.152       -2618.648          38.500    27325945.820   110030249.633       -2007.246          42.000  
E30  25634358.420   134709474.461       -1459.281          46.250    25634362.680   103218946.836       -1117.453          49.250  
E19  24254571.020   127458624.645        1342.680          45.750    24254572.300    97663096.617        1027.551          46.000  
E21  27610270.980   145092950.223        3319.109          33.250    27610279.580   111175137.688        2542.047          37.500  
E11                                                                  25385436.820   102216619.977         -70.098          34.000  
> 2023 12 11 10 12 51.0000000  0 28       0.000000000000
G30  20854373.480   109590472.285        -809.383          50.750    20854373.420    85395185.621        -630.012          48.750  
G07  22365024.940   117528997.598       -2395.203          47.500    22365023.380    91581035.375       -1866.504          42.750  
G05  21430802.100   112619635.590       -1754.086          49.000    21430802.380    87755547.645       -1368.004          46.250  
G15  22498579.920   118230830.715        3356.008          41.000    22498587.500    92127968.410        2613.504          31.500  
G13  20401390.260   107210069.543        1527.535          49.250                                                                  
G22  23375228.700   122837641.637        3319.469          41.000                                                                  
G27  23877322.600   125476180.781       -1185.609          30.750                                                                  
G20  23254737.940   122204477.965       -3531.180          37.000                                                                  
G14  22282820.780   117097010.859        2725.699          45.000    22282821.360    91244432.711        2124.133          48.250  
G18                                                                  23537867.780    96383637.125        -337.551          40.250  
R14  19954656.840   106369592.430       -1804.359          56.500                                                                  
R15                                                                  20041580.740    83296979.613        1991.633          49.000  
R21                                                                  23307669.960    97007590.113       -2775.859          40.750  
C07  38939846.480   202769994.238         918.266          42.750    38939845.760   156794609.121         709.609          42.250  
C24  25072420.280   130558665.059       -3100.820          46.500                                                                  
C10  39158556.620   203908875.750        1283.813          44.250    39158559.420   157675273.984         992.961          40.250  
C32  22270297.460   115967325.840         510.527          52.250                                                                  
C23  23402188.320   121861369.719        2523.645          51.750                                                                  
C20  25320307.780   131849473.7702       3165.426          34.500                                                                  
C25  22036812.500   114751464.352        -472.508          54.250                                                                  
C09  40339715.140   210059471.805       -1125.590          37.000    40339719.980   162431321.367        -867.508          40.250  
E07  27396626.000   143970229.070       -2986.898          40.250                                                                  
E27  24673817.900   129661789.652        1570.973          48.250    24673823.760    99351245.414        1201.852          49.500  
E12  27326440.920   143601434.434       -2620.512          38.500    27326444.200   110032256.613       -2006.008          42.000  
E30  25634635.720   134710932.484       -1458.020          46.250    25634640.140   103220064.031       -1116.781          49.250  
E19  24254315.440   127457282.418        1341.770          45.500    24254316.900    97662068.172        1028.035          46.000  
E21  27609638.100   145089629.766        3316.281          33.250    27609647.760   111172593.488        2541.391          37.500  
E11                                                                  25385454.260   102216690.793         -71.133          34.250  
> 2023 12 11 10 12 52.0000000  0 28       0.000000000000
G30  20854527.280   109591280.770        -809.332          51.000    20854527.300    85395815.609        -628.617          48.500  
G07  22365480.860   117531392.875       -2395.129          47.750    22365479.360    91582901.801       -1866.336          42.750  
G05  21431135.900   112621390.391       -1756.480          49.250    21431136.360    87756915.012       -1367.574          46.500  
G15  22497941.200   118227475.188        3355.391          41.500    22497948.840    92125353.777        2616.375          31.000  
G13  20401099.520   107208541.754        1527.824          49.750                                                                  
G22  23374597.000   122834322.352        3317.586          41.250                                                                  
G27  23877548.340   125477364.746       -1184.004          31.500                                                                  
G20  23255409.420   122208007.480       -3532.547          37.250                                                                  
G14  22282301.800   117094284.840        2726.277          45.250    22282302.680    91242308.543        2124.395          48.250  
G18                                                                  23537949.840    96383973.414        -336.828          40.000  
R14  19954995.360   106371396.645       -1805.164          56.500                                                                  
R15                                                                  20041101.480    83294987.547        1991.125          48.750  
R21                                                                  23308336.820    97010366.156       -2775.586          40.500  
C07  38939669.720   202769075.793         917.293          42.750    38939669.100   156793898.891         709.188          42.250  
C24  25073015.600   130561765.305       -3100.367          46.250                                                                  
C10  39158309.860   203907591.789        1285.047          44.250    39158312.520   157674281.133         993.000          40.000  
C32  22270199.060   115966814.191         510.648          52.000                                                                  
C23  23401703.480   121858845.176        2524.281          51.750                                                                  
C20  25319699.300   131846308.738        3165.563          33.750                                                                  
C25  22036903.260   114751937.117        -473.160          54.250                                                                  
C09  40339931.200   210060597.117       -1125.379          36.750    40339936.140   162432191.523        -869.836          40.250  
E07  27397194.180   143973215.848       -2986.676          40.000                                                                  
E27  24673518.980   129660219.605        1569.223          48.250    24673524.920    99350042.395        1202.297          49.500  
E12  27326939.300   143604053.941       -2620.508          38.250    27326942.600   110034263.773       -2008.902          42.000  
E30  25634913.320   134712390.918       -1459.172          46.250    25634917.640   103221181.512       -1117.609          49.000  
E19  24254059.940   127455940.488        1341.332          45.500    24254061.620    97661039.922        1028.418          45.750  
E21  27609006.280   145086309.379        3321.613          33.000    27609015.820   111170049.316        2544.328          37.500  
E11                                                                  25385471.900   102216761.934         -74.754          34.000  
> 2023 12 11 10 12 53.0000000  0 28       0.000000000000
G30  20854681.180   109592089.395        -808.727          51.000    20854681.300    85396445.707        -631.520          48.750  
G07  22365936.580   117533788.086       -2396.148          47.750    22365935.420    91584768.219       -1867.656          42.750  
G05  21431469.800   112623145.418       -1756.691          49.500    21431470.360    87758282.574       -1370.977          46.500  
G15  22497302.980   118224119.625        3354.457          41.500    22497308.740    92122724.9881       2615.602          30.250  
G13  20400808.800   107207014.090        1526.781          49.750                                                                  
G22  23373965.480   122831002.957        3320.535          41.500                                                                  
G27  23877774.120   125478548.934       -1185.234          31.500                                                                  
G20  23256080.880   122211536.879       -3529.766          37.250                                                                  
G14  22281783.260   117091558.863        2724.039          45.500    22281783.940    91240184.402        2123.762          48.250  
G18                                                                  23538032.200    96384309.934        -335.738          40.000  
R14  19955333.800   106373201.207       -1805.793          56.500                                                                  
R15                                                                  20040621.820    83292995.699        1990.711          49.000  
R21                                                                  23309004.560    97013142.246       -2776.832          41.500  
C07  38939493.240   202768157.082         919.176          42.500    38939492.680   156793188.484         710.504          42.000  
C24  25073610.960   130564865.336       -3099.172          46.250                                                                  
C10  39158063.080   203906307.535        1283.297          44.250    39158066.040   157673288.051         994.250          39.750  
C32  22270100.720   115966302.660         510.340          52.000                                                                  
C23  23401218.640   121856320.566        2523.582          51.750                                                                  
C20  25319092.420   131843143.070        3163.988          34.750                                                                  
C25  22036994.000   114752409.996        -473.676          54.250                                                                  
C09  40340147.260   210061722.039       -1125.938          36.750    40340152.540   162433061.375        -872.043          40.000  
E07  27397762.720   143976202.328       -2986.566          40.250    27397760.200   110319414.773       -2287.262          32.500  
E27  24673220.340   129658649.602        1569.367          48.250    24673226.200    99348839.414        1201.523          49.500  
E12  27327437.540   143606673.328       -2620.891          38.500    27327441.020   110036270.867       -2006.949          41.750  
E30  25635191.040   134713849.340       -1459.055          46.500    25635195.080   103222299.016       -1117.473          49.250  
E19  24253804.700   127454598.453        1342.000          45.500    24253806.180    97660011.625        1028.105          46.000  
E21  27608374.800   145082988.723        3319.918          33.250    27608383.900   111167504.883        2545.211          37.250  
E11                                                                  25385489.180   102216833.141         -70.836          33.750  
> 2023 12 11 10 12 54.0000000  0 27       0.000000000000
G30  20854834.980   109592898.410        -811.148          51.250    20854835.420    85397076.109        -632.051          48.500  
G07  22366392.500   117536183.465       -2396.859          47.750    22366391.340    91586634.734       -1868.387          42.750  
G05  21431803.920   112624900.953       -1755.715          49.500    21431804.340    87759650.523       -1370.027          46.250  
G15  22496664.300   118220764.191        3354.598          41.250    22496669.860    92120106.3791       2609.891          30.250  
G13  20400518.360   107205486.832        1525.914          49.750                                                                  
G22  23373333.600   122827683.684        3316.305          41.500                                                                  
G27  23878000.300   125479733.676       -1187.441          32.000                                                                  
G20  23256752.320   122215066.352       -3530.375          37.500                                                                  
G14  22281264.640   117088833.176        2724.887          45.500    22281265.120    91238060.496        2123.211          48.000  
G18                                                                  23538114.780    96384646.848        -337.996          40.000  
R14  19955672.460   106375006.371       -1806.301          56.250                                                                  
R21  23309658.180   124734733.1993      -3571.539          27.500    23309670.720    97015918.645       -2776.793          41.750  
R15                                                                  20040142.280    83291004.281        1989.934          49.000  
C07  38939317.220   202767238.371         918.574          42.500    38939316.480   156792478.082         710.125          42.000  
C24  25074206.320   130567965.402       -3099.867          46.250                                                                  
C10  39157816.760   203905023.238        1283.293          44.250    39157819.260   157672294.957         991.164          39.750  
C32  22270002.640   115965791.512         510.227          52.000                                                                  
C23  23400733.820   121853796.172        2523.008          51.500                                                                  
C20  25318484.500   131839977.355        3165.367          34.250                                                                  
C25  22037084.920   114752883.254        -474.430          54.250                                                                  
C09  40340362.920   210062846.836       -1125.875          37.250    40340368.360   162433931.137        -871.129          39.750  
E07  27398330.420   143979188.727       -2987.145          40.000                                                                  
E27  24672921.640   129657079.875        1567.285          48.250    24672927.440    99347636.633        1202.215          49.500  
E12  27327936.200   143609292.871       -2621.426          38.250    27327939.400   110038278.020       -2007.305          42.000  
E30  25635468.700   134715308.051       -1460.336          46.250    25635472.760   103223416.727       -1117.688          49.000  
E19  24253549.440   127453256.586        1341.047          45.250    24253550.820    97658983.434        1026.031          45.750  
E21  27607742.360   145079667.980        3318.559          33.000    27607752.100   111164960.406        2545.500          37.250  
> 2023 12 11 10 12 55.0000000  0 27       0.000000000000
G30  20854989.120   109593708.184        -810.879          51.750    20854989.640    85397707.094        -632.117          48.250  
G07  22366848.400   117538579.406       -2396.348          48.250    22366846.940    91588501.703       -1865.668          42.500  
G05  21432138.020   112626657.348       -1757.012          50.250    21432138.540    87761019.137       -1369.852          46.250  
G15  22496025.960   118217409.352        3354.492          42.250    22496029.100    92117480.8983       2618.020          29.000  
G13  20400227.740   107203960.332        1525.902          50.250                                                                  
G22  23372701.960   122824364.910        3320.902          42.250                                                                  
G27  23878226.240   125480919.383       -1185.473          32.750                                                                  
G20  23257424.260   122218596.324       -3530.422          38.000                                                                  
G14  22280746.040   117086108.168        2725.129          46.250    22280746.420    91235937.109        2122.980          48.000  
G18                                                                  23538197.080    96384984.477        -339.438          40.250  
R14  19956011.260   106376812.520       -1807.320          56.250                                                                  
R15                                                                  20039663.820    83289013.594        1990.516          49.000  
R21                                                                  23310338.920    97018695.586       -2777.855          41.500  
C07  38939140.760   202766320.008         918.113          42.500    38939140.200   156791767.957         709.566          42.000  
C24  25074802.120   130571065.910       -3099.859          46.250                                                                  
C10  39157570.200   203903739.297        1281.938          44.250    39157572.540   157671302.117         992.914          39.500  
C32  22269904.500   115965281.125         509.535          52.000                                                                  
C23  23400249.140   121851272.387        2522.758          51.500                                                                  
C20  25317877.540   131836812.125        3163.109          34.250                                                                  
C25  22037175.940   114753357.258        -475.773          54.250                                                                  
C09  40340579.420   210063971.867       -1126.355          37.000    40340584.680   162434801.066        -867.176          39.750  
E07  27398899.040   143982175.434       -2988.898          40.000                                                                  
E27  24672622.960   129655510.820        1566.672          48.250    24672628.900    99346434.359        1202.695          49.250  
E12  27328435.160   143611912.902       -2620.605          38.250    27328438.100   110040285.582       -2007.457          41.750  
E30  25635746.500   134716767.406       -1458.836          46.250    25635750.440   103224534.938       -1117.875          48.750  
E19  24253294.080   127451915.281        1341.180          45.250    24253295.540    97657955.699        1027.867          45.750  
E21  27607110.740   145076347.504        3318.590          33.000    27607120.140   111162416.164        2541.129          37.500  
> 2023 12 11 10 12 56.0000000  0 28       0.000000000000
G30  20855143.420   109594518.848        -810.586          52.500    20855143.860    85398338.793        -631.727          48.500  
G07  22367304.600   117540976.020       -2396.520          49.000    22367303.040    91590369.188       -1867.992          42.500  
G05  21432472.520   112628414.738       -1757.383          50.750    21432473.060    87762388.527       -1370.582          46.250  
G15  22495387.780   118214055.168        3353.941          42.750    22495389.020    92114861.9773       2613.680          29.250  
G13  20399937.500   107202434.719        1526.023          51.000                                                                  
G22  23372070.340   122821046.758        3317.254          42.500                                                                  
G27  23878451.360   125482106.004       -1188.328          33.500                                                                  
G20  23258095.800   122222126.922       -3532.355          38.250                                                                  
G14  22280227.740   117083383.941        2723.539          46.750    22280228.020    91233814.348        2122.344          47.750  
G18                                                                  23538280.060    96385322.926        -338.211          40.500  
R14  19956350.240   106378619.785       -1807.926          56.250                                                                  
R15                                                                  20039185.140    83287023.730        1989.410          49.000  
R21                                                                  23311005.840    97021473.227       -2777.648          41.500  
C07  38938964.660   202765402.172         917.086          42.500    38938963.680   156791058.227         709.098          42.250  
C24  25075397.680   130574166.945       -3100.020          46.250                                                                  
C10  39157323.620   203902455.797        1283.500          44.000    39157326.100   157670309.648         991.777          39.750  
C32  22269806.680   115964771.609         508.785          52.000                                                                  
C23  23399764.660   121848749.289        2523.059          51.500                                                                  
C20  25317269.400   131833647.379        3165.129          34.000                                                                  
C25  22037267.140   114753832.129        -475.664          54.250                                                                  
C09  40340794.760   210065097.207       -1126.828          37.000    40340800.640   162435671.285        -870.949          39.750  
E07  27399467.180   143985162.582       -2987.574          39.750                                                                  
E27  24672324.440   129653942.539        1567.504          48.000    24672330.420    99345232.699        1200.438          49.250  
E12  27328933.420   143614533.570       -2621.043          38.250    27328936.820   110042293.645       -2006.844          41.500  
E30  25636024.360   134718227.543       -1460.547          46.250    25636028.280   103225653.738       -1119.410          48.750  
E19  24253038.820   127450574.641        1341.773          45.250    24253040.440    97656928.430        1028.785          45.500  
E21  27606479.480   145073027.441        3319.027          33.500    27606488.500   111159872.234        2542.059          37.500  
E11                                                                  25385542.820   102217050.6171        -71.316          33.250  
> 2023 12 11 10 12 57.0000000  0 27       0.000000000000
G30  20855297.880   109595330.285        -811.578          52.500    20855298.220    85398971.070        -632.965          48.250  
G07  22367760.620   117543373.168       -2398.379          49.250    22367759.060    91592237.098       -1870.445          42.250  
G05  21432807.280   112630172.965       -1758.992          51.000    21432807.540    87763758.582       -1371.648          46.250  
G15  22494749.760   118210701.523        3354.281          43.250    22494750.040    92112245.8953       2610.301          29.000  
G13  20399647.160   107200909.871        1524.512          51.250                                                                  
G22  23371438.980   122817729.098        3315.816          42.750                                                                  
G27  23878677.020   125483293.613       -1187.078          33.750                                                                  
G20  23258767.520   122225657.992       -3532.340          38.500                                                                  
G14  22279709.440   117080660.387        2723.570          47.250    22279709.720    91231692.082        2121.105          47.750  
G18                                                                  23538363.560    96385662.066        -341.031          40.500  
R14  19956689.580   106380428.039       -1808.836          56.500                                                                  
R15                                                                  20038706.180    83285034.570        1989.613          49.000  
R21                                                                  23311675.100    97024251.395       -2778.145          41.750  
C07  38938788.520   202764484.672         917.039          42.500    38938787.440   156790348.797         710.660          42.750  
C24  25075993.060   130577268.395       -3102.707          46.500                                                                  
C10  39157077.380   203901172.617        1282.016          44.000    39157079.540   157669317.430         991.195          40.250  
C32  22269708.940   115964262.832         507.641          52.000                                                                  
C23  23399280.220   121846226.770        2522.047          51.750                                                                  
C20  25316661.700   131830482.984        3163.641          34.250                                                                  
C25  22037358.560   114754307.738        -475.918          54.250                                                                  
C09  40341011.040   210066222.801       -1127.473          37.000    40341017.240   162436541.656        -871.203          40.500  
E07  27400036.000   143988150.047       -2987.840          39.750                                                                  
E27  24672026.200   129652374.902        1566.906          48.250    24672032.120    99344031.520        1200.965          49.250  
E12  27329432.260   143617154.781       -2621.480          38.250    27329435.560   110044302.078       -2008.375          41.750  
E30  25636302.400   134719688.309       -1461.156          46.250    25636306.240   103226773.027       -1119.742          48.750  
E19  24252783.860   127449234.516        1340.434          45.500    24252785.400    97655901.605        1024.973          45.750  
E21  27605847.440   145069707.668        3319.164          33.500    27605856.740   111157328.535        2542.910          37.500  
> 2023 12 11 10 12 58.0000000  0 28       0.000000000000
G30  20855452.320   109596141.734        -811.496          52.500    20855452.620    85399603.379        -631.680          48.500  
G07  22368216.920   117545770.152       -2396.844          49.000    22368215.740    91594104.863       -1869.223          42.500  
G05  21433141.960   112631931.332       -1759.102          51.000    21433142.020    87765128.727       -1372.414          46.250  
G15  22494111.660   118207347.723        3352.348          43.000    22494111.360    92109629.3913       2609.027          28.500  
G13  20399357.020   107199385.063        1524.496          51.000                                                                  
G22  23370807.760   122814411.215        3317.922          42.500                                                                  
G27  23878903.940   125484481.371       -1188.480          34.000                                                                  
G20  23259439.420   122229188.844       -3531.242          38.250                                                                  
G14  22279191.320   117077936.746        2723.156          47.000    22279191.420    91229569.770        2122.375          48.000  
G18                                                                  23538446.580    96386001.324        -339.578          41.000  
R14  19957028.980   106382236.523       -1809.227          56.250                                                                  
R21  23312328.840   124749002.7072      -3569.465          28.500    23312341.800    97027029.531       -2780.453          41.000  
R15                                                                  20038227.520    83283045.535        1987.953          49.000  
C07  38938612.000   202763566.813         917.258          42.500    38938611.200   156789639.031         707.605          42.250  
C24  25076588.560   130580369.516       -3103.414          46.250                                                                  
C10  39156830.940   203899889.094        1283.813          43.750    39156833.040   157668324.926         993.340          40.000  
C32  22269611.200   115963754.086         508.277          52.000                                                                  
C23  23398795.920   121843704.105        2522.375          51.500                                                                  
C20  25316054.040   131827318.367        3165.250          34.750                                                                  
C25  22037449.940   114754783.363        -476.422          54.000                                                                  
C09  40341227.940   210067347.848       -1126.781          37.000    40341232.840   162437411.652        -869.992          40.250  
E07  27400604.440   143991137.035       -2989.234          40.000                                                                  
E27  24671727.720   129650807.191        1566.844          48.250    24671733.780    99342830.285        1200.023          49.250  
E12  27329931.960   143619775.738       -2621.934          38.000    27329934.220   110046310.328       -2009.227          41.500  
E30  25636580.460   134721148.992       -1460.656          46.250    25636584.240   103227892.246       -1121.289          48.750  
E19  24252528.600   127447894.191        1340.191          45.500    24252530.380    97654874.590        1026.566          45.750  
E21  27605215.720   145066387.469        3318.363          33.250    27605224.920   111154784.512        2544.000          37.750  
E11                                                                  25385579.600   102217195.3751        -73.379          33.250  
> 2023 12 11 10 12 59.0000000  0 29       0.000000000000
G30  20855606.760   109596953.801        -812.898          52.000    20855607.080    85400236.168        -632.926          48.500  
G07  22368673.060   117548167.523       -2397.504          48.500    22368671.880    91595972.969       -1867.504          42.250  
G05  21433476.720   112633690.414       -1760.277          50.500    21433476.800    87766499.469       -1369.410          46.500  
G15  22493473.800   118203994.344        3353.301          43.250    22493471.740    92107009.4803       2614.063          29.250  
G13  20399066.980   107197860.871        1524.477          50.500                                                                  
G22  23370176.400   122811093.672        3317.363          42.250                                                                  
G27  23879130.140   125485669.922       -1187.820          33.750                                                                  
G20  23260111.460   122232719.980       -3532.605          37.750                                                                  
G14  22278673.140   117075213.648        2722.711          46.750    22278673.380    91227447.879        2120.105          48.250  
G18                                                                  23538529.660    96386341.191        -341.598          41.000  
R15  20037744.440   107075668.5161       2556.008          56.500    20037748.380    83281057.145        1987.086          48.750  
R14  19957368.280   106384045.840       -1810.023          56.500                                                                  
R05  19223827.580   102762413.4451       -832.074          54.750    19223832.120    79926311.7341       -647.230          48.250  
R21  23312994.320   124752585.0943      -3574.527          30.500    23313008.220    97029808.121       -2779.547          40.750  
